Nombre,Rating,Latitud,Longitud,Oferta_1,Precio_1,Oferta_2,Precio_2,Oferta_3,Precio_3
Fiesta Americana Reforma,8,19.43251,-99.15483,Expedia,1392,travelclick,1398,Booking.com,1407
Fiesta Inn Centro Historico,8.6,19.43463,-99.147,Booking.com,1112,travelclick,1071,Expedia,1100
Grand Prix,8.2,19.40227,-99.09749,Booking.com,1053,Expedia,1053,Hoteles.com,1053
Castropol,8.5,19.42698,-99.13278,Booking.com,528,Expedia,586,Hoteles.com,586
ibis Mexico Alameda Hotel,7.8,19.4333,-99.1477,Booking.com,715,ibis,715,Expedia,715
Hospedaje Puerto Mexico Aeropuerto,6.5,19.43529,-99.08635,Booking.com,527,Expedia,527,Hoteles.com,527
Holiday Inn Mexico Dali Airport,8.6,19.40583,-99.11913,Booking.com,1105,Holiday Inn,1105,Hoteles.com,1105
Casa Blanca,8,19.43488,-99.15356,Booking.com,984,as_Roiback,963,Expedia,973
Fiesta Inn Cd De Mexico Forum Buenavista,9.1,19.44916,-99.15212,Booking.com,844,travelclick,814,Expedia,835
Fontán Reforma,7.7,19.43636,-99.14765,Booking.com,709,Expedia,709,Hoteles.com,709
Abastos Plaza,8.4,19.3843,-99.08259,Booking.com,838,Expedia,838,Hoteles.com,838
Holiday Inn Mexico Buenavista,9,19.44258,-99.15534,Booking.com,901,Holiday Inn,901,Hoteles.com,901
Diligencias,7.8,19.43861,-99.13966,Booking.com,553,Expedia,553,Hoteles.com,553
Plaza Solís,7.8,19.40967,-99.13905,Booking.com,402,Despegar,425,Expedia,425
Hyatt Regency Mexico City,9.1,19.42723,-99.19287,Hoteles.com,3957,Expedia,3957,Booking.com,4001
City Express Plus Reforma El Ángel,7.9,19.42645,-99.16691,Booking.com,1273,Expedia,1273,Destinia,1214
Hilton Mexico City Reforma,9,19.43463,-99.14629,Booking.com,2010,Hilton,2135,Expedia,1989
Nh Aeropuerto Terminal 2 Mexico,8.5,19.42136,-99.07717,ZenHotels.com,2489,,NA,,NA
Stanza Hotel,8.3,19.41944,-99.15515,Booking.com,986,Expedia,986,Hoteles.com,986
Fairfield Inn & Suites by Marriott Mexico City Vallejo,8.9,19.48833,-99.15186,Fairfield Inn,859,Booking.com,744,Hoteles.com,855
Sport Aristos  Boutique,7.2,19.41485,-99.07149,Destinia,856,Booking.com,1201,lol.travel,898
El Ejecutivo,8.1,19.43054,-99.15772,Booking.com,819,Expedia,819,Hoteles.com,819
Villas Princess,6.9,19.40532,-99.11545,Booking.com,651,Expedia,649,Hoteles.com,649
Hotel PF Suites,8,19.42541,-99.16165,Booking.com,851,Expedia,851,Hoteles.com,851
Novit Hotel,9.1,19.37464,-99.11179,Hoteles.com,1213,Booking.com,1226,Expedia,1213
Camino Real Aeropuerto,7.8,19.43538,-99.08526,Hoteles.com,1908,Expedia,1908,PriceTravel,1555
NH Collection Mexico City Airport T2,7.9,19.43705,-99.07346,Expedia,2293,NH Collection,2062,Hoteles.com,2293
Hotel Hilton Mexico City Airport,7.7,19.43645,-99.0806,Hoteles.com,2486,Hilton,2512,Expedia,2486
We Hotel Aeropuerto,7.9,19.43319,-99.08924,Booking.com,1237,Expedia,1106,Hoteles.com,1106
City Express Aeropuerto Ciudad De México,8.3,19.42258,-99.09499,Booking.com,1200,Expedia,1200,Hoteles.com,1200
Hotel Courtyard Mexico City Airport,8.9,19.43656,-99.08268,Booking.com,1864,Courtyard,1852,Expedia,1844
Fiesta Inn Aeropuerto Ciudad de México,8.2,19.43516,-99.08901,Booking.com,1506,travelclick,1451,Hoteles.com,1490
Hotel W Mexico City,8.5,19.42756,-99.19508,Hoteles.com,2943,W Hotels,2956,Expedia,2943
Barceló México Reforma,8.6,19.43525,-99.15097,Expedia,1461,Barcelo.com,1468,Booking.com,1509
MX aeropuerto,8.4,19.41765,-99.09337,Booking.com,1126,Expedia,1126,Destinia,555
Gran Hotel Ciudad de México,9.3,19.43213,-99.13488,Booking.com,2334,travelclick,2576,Expedia,2309
Krystal Urban Aeropuerto Ciudad de Mexico,8.3,19.38329,-99.076,Booking.com,901,Expedia,901,Hoteles.com,901
izZzleep,8.4,19.4373,-99.07167,Booking.com,729,Agoda,729,,NA
Fiesta Inn Plaza Central Aeropuerto,8.6,19.37691,-99.09559,Booking.com,971,travelclick,936,Expedia,960
Zócalo Central Hotel,8.9,19.43393,-99.13434,Booking.com,2153,WIHP,2136,Expedia,2130
Hampton Inn & Suites Mexico City - Centro Historico,9,19.4301,-99.1346,Booking.com,1106,Hampton Inn,1105,Hoteles.com,1094
Sofitel Mexico City Reforma,9.3,19.42836,-99.16573,Sofitel,3966,Expedia,3475,Booking.com,3991
NH Collection Mexico City Centro Histórico,8.2,19.43153,-99.13544,NH Collection,1037,Booking.com,1166,Expedia,1153
Sheraton Mexico City Maria Isabel Hotel,8.6,19.4281,-99.1672,Sheraton,1738,Booking.com,1749,Expedia,1730
MX congreso,7.6,19.43517,-99.11546,Booking.com,631,Expedia,398,Hoteles.com,398
Brick,8.2,19.41925,-99.16026,Trip.com,8643,Traveluro,8316,Hotelwiz,7976
Camino Real Polanco,8.3,19.42767,-99.17941,Hoteles.com,2267,Trip.com,1564,Expedia,2267
Sevilla Palace Hotel,8.3,19.43279,-99.15624,Booking.com,1150,Expedia,1085,Hoteles.com,1085
The Ritz Hotel Mexico City Downtown,7.8,19.43376,-99.13795,Booking.com,968,Expedia,893,Hoteles.com,893
City Express Ciudad de México Alameda,7.3,19.43318,-99.14637,Booking.com,821,Expedia,821,Hoteles.com,821
Courtyard by Marriott Mexico City Vallejo,8.6,19.50792,-99.15891,Courtyard,1019,Booking.com,945,Hoteles.com,935
Galeria Plaza Reforma,8.5,19.42494,-99.16788,Expedia,1392,travelclick,1398,Booking.com,1595
Hotel Aeropuerto,7.8,19.43283,-99.08959,Expedia,1089,Booking.com,1089,Hoteles.com,1089
Four Seasons Hotel Mexico,9.5,19.42306,-99.17432,Expedia,5091,Hoteles.com,5091,Booking.com,5790
Hotel Emporio Mexico City,8.2,19.43155,-99.15697,Booking.com,1025,Expedia,1025,Hoteles.com,1025
Royal Reforma,7.2,19.42394,-99.16422,Booking.com,891,Expedia,891,Hoteles.com,891
City Express Ebc Reforma,7.8,19.42791,-99.1621,Booking.com,1059,Expedia,1059,Hoteles.com,1059
Hotel The St. Regis Mexico City,9.3,19.42572,-99.17239,Expedia,4598,St. Regis,4618,Booking.com,4648
ibis Styles Mexico Zona Rosa,8.4,19.42491,-99.16288,Booking.com,837,ibis Styles,837,Expedia,837
Hotel One Ciudad de México Patriotismo,7.9,19.39592,-99.18062,Booking.com,842,travelclick,812,Expedia,833
Hotel Carlota,8.5,19.4305,-99.16354,Hoteles.com,1261,Expedia,1261,Booking.com,1261
City Express Ciudad de México La Raza,8.5,19.46817,-99.14417,Booking.com,813,Expedia,813,Hoteles.com,813
Amigo Suites Centro,8,19.43683,-99.13282,Booking.com,936,Expedia,774,Trip.com,624
Exe Suites San Marino,7.3,19.42871,-99.16885,Booking.com,875,Hoteles.com,865,Expedia,865
MX Reforma,8.4,19.42699,-99.16638,Booking.com,1156,Expedia,860,Hoteles.com,860
Templo Mayor,7.7,19.43461,-99.12975,Booking.com,713,Expedia,713,Despegar,713
Mundo Joven Catedral,8.4,19.43541,-99.1337,Booking.com,469,Despegar,179,Traveluro,1614
Hotel Grand Fiesta Americana Chapultepec,8.6,19.42509,-99.17834,Hoteles.com,2166,travelclick,2110,Expedia,2166
Hollywood,7.4,19.40665,-99.07464,Booking.com,712,Expedia,712,Hoteles.com,712
Mexico City Marriott Reforma,9.1,19.42771,-99.16416,Hoteles.com,1889,Marriott Hotels,1898,Booking.com,1910
Cuba,7.7,19.43706,-99.13616,Booking.com,435,Agoda,435,,NA
Hotel Century Zona Rosa,8,19.42385,-99.16483,Booking.com,987,Expedia,771,Hoteles.com,771
City Centro Ciudad De México,8.6,19.43057,-99.13787,Booking.com,1721,Expedia,1721,Trip.com,1527
JW Marriott Mexico City,9.2,19.4268,-99.19497,JW Marriott,2956,Expedia,2943,Hoteles.com,2943
One Ciudad de México Alameda,8.4,19.43518,-99.14766,Booking.com,904,Expedia,895,Hoteles.com,895
Hostel Mexico Df,7.2,19.44138,-99.07864,Booking.com,311,,NA,,NA
Hotel Marbella,8.5,19.41503,-99.155,Booking.com,1000,Expedia,1000,Destinia,931
Hotel Catedral,9,19.43562,-99.13277,Booking.com,828,Destinia,1477,Expedia,1100
Punto Mx,9,19.43043,-99.13771,Booking.com,1203,Expedia,1210,Hoteles.com,1210
LaiLa Hotel CDMX,8,19.42695,-99.17226,Booking.com,1289,Hoteles.com,1275,Destinia,912
Imperial Reforma,7.5,19.4333,-99.15377,Booking.com,925,Expedia,1004,Hoteles.com,1004
NH Collection Mexico City Reforma,7.9,19.42408,-99.16506,NH Collection,1138,Booking.com,1279,Expedia,1265
Loove Hotel - Adults Only,6.5,19.41164,-99.05655,Despegar,400,Hoteles.com,400,Booking.com,400
Hotel Riazor,8.9,19.39897,-99.17188,Booking.com,1335,Expedia,1028,Hoteles.com,1028
Hotel Villa de Madrid,7.6,19.46157,-99.12513,Booking.com,603,Expedia,603,Hoteles.com,603
Best Western Hotel Majestic,7.4,19.43327,-99.13434,Destinia,1044,Expedia,1401,Hoteles.com,1401
Hotel Menara,8.1,19.42539,-99.13783,Booking.com,440,Expedia,420,Hoteles.com,420
Hotel Downtown Mexico,8,19.43293,-99.13629,Trip.com,3081,Booking.com,2871,Traveluro,2711
Hotel Metropol,7.8,19.43293,-99.14533,Booking.com,637,Expedia,756,Hoteles.com,756
Kali Ciudadela Mexico City,8.5,19.42841,-99.14703,Booking.com,668,Expedia,668,Hoteles.com,668
Hotel Plaza Revolución,8.3,19.43623,-99.15092,Booking.com,983,Expedia,933,Destinia,800
Mala Vecindad,8.4,19.43994,-99.15382,Booking.com,552,Destinia,593,lol.travel,623
Wyndham Garden Mexico City Polanco,8.2,19.42548,-99.17716,Hoteles.com,1321,Expedia,1321,Booking.com,1321
Seoul,7.5,19.43718,-99.12141,Booking.com,362,Expedia,362,Hoteles.com,362
Hotel Geneve Mexico City,8.5,19.4251,-99.16433,Booking.com,1683,Hoteles.com,1701,Expedia,1701
Hotel Samil Plaza,7.9,19.45605,-99.12885,Booking.com,810,Destinia,856,Expedia,900
Guest Green,7.2,19.41321,-99.05524,Expedia,215,,NA,,NA
Hotel Isabel,7.3,19.43,-99.13686,Booking.com,480,Expedia,480,Hoteles.com,480
Isaaya Hotel Boutique,9,19.39414,-99.17558,Booking.com,1371,travelclick,1333,Expedia,1357
Hotel Historico Central,9.4,19.43316,-99.13835,Booking.com,2239,Expedia,2130,Destinia,1797
Hotel Cartagena,7.9,19.47457,-99.13838,Booking.com,582,Expedia,582,Hoteles.com,582
Hotel San Lucas,7.7,19.42447,-99.1325,Booking.com,520,Expedia,520,Hoteles.com,520
Universal,8.1,19.45468,-99.12931,Booking.com,251,Expedia,251,Hoteles.com,251
Hotel Andrade,7.7,19.42081,-99.14584,Booking.com,437,Expedia,437,Despegar,397
El Parque México,7.4,19.40419,-99.06363,Booking.com,1791,Agoda,1791,,NA
One Ciudad De Mexico La Raza,8.6,19.46282,-99.14858,Booking.com,746,travelclick,719,Expedia,739
Hotel Senorial,7.2,19.42752,-99.13978,Booking.com,419,Expedia,419,Despegar,419
San Francisco Centro Histórico,7.1,19.43421,-99.145,Booking.com,828,Expedia,828,Trip.com,808
Hotel Marlowe,8.1,19.43321,-99.1424,Booking.com,828,Expedia,833,Hoteles.com,833
InterContinental Presidente Mexico City,8.8,19.42724,-99.19365,Expedia,2667,InterContinental,2678,Hoteles.com,2667
Ramada Reforma Ex Jena,7.7,19.43766,-99.15043,Booking.com,801,Expedia,801,Hoteles.com,801
Quinta Avenida,7.2,19.40594,-99.05777,Expedia,580,Hoteles.com,580,Despegar,580
Holiday Inn Hotel & Suites Mexico Zona Rosa,8.5,19.42818,-99.15881,Booking.com,903,Holiday Inn,903,Expedia,903
Dominion Corporate Suites,8.3,19.42884,-99.1937,travelclick,4853,Booking.com,5006,Expedia,4940
MX roma,8.5,19.42093,-99.15797,Booking.com,846,Despegar,781,MéxicoDestinos,730
Hotel Lord,7,19.41916,-99.14522,Booking.com,371,Expedia,480,Hoteles.com,480
Hotel Mónaco,7.8,19.43876,-99.14907,Booking.com,673,Expedia,643,Hoteles.com,643
Roble,7.9,19.42992,-99.13277,Expedia,503,Booking.com,561,Hoteles.com,503
Econo Express Hotel,8.5,19.38098,-99.14059,Booking.com,490,Expedia,490,Hoteles.com,490
Exe Cities Reforma,7.9,19.42983,-99.15938,Booking.com,908,Expedia,898,Destinia,762
El Senador,6.7,19.41791,-99.14537,Booking.com,392,Expedia,446,Hoteles.com,446
Hotel PF,8,19.42362,-99.16627,Booking.com,851,travelclick,887,Expedia,851
Hotel Eurostars Zona Rosa Suites,8.3,19.42566,-99.16398,Booking.com,1077,Expedia,1065,Destinia,1007
Hotel Bristol,8.1,19.43127,-99.16698,Booking.com,701,Expedia,813,Hoteles.com,813
Hotel Lepanto,7.9,19.44227,-99.14834,Booking.com,667,lol.travel,504,Destinia,498
Holiday Inn Express Mexico - Toreo,9,19.46564,-99.23014,Expedia,810,Hoteles.com,810,Trip.com,810
Hotel Scala Magna,8.3,19.46979,-99.22649,Booking.com,1170,Expedia,950,Hoteles.com,950
Residence L’ Heritage Royal Colonial by BlueBay,7.3,19.43311,-99.19675,Hoteles.com,1027,Destinia,1025,Expedia,1028
Valle de México,7.2,19.46588,-99.22614,Booking.com,757,Expedia,757,lol.travel,642
Fiesta Inn Naucalpan,8.1,19.4796,-99.23087,Booking.com,803,travelclick,775,Hoteles.com,794
Polanco By O,7.8,19.42885,-99.2006,Expedia,1213,Hoteles.com,1213,Despegar,1215
Hotel Mision Toreo Centro De Convenciones,7.5,19.46636,-99.23933,Expedia,798,Hoteles.com,798,Destinia,877
Habita,7.7,19.43173,-99.18993,Booking.com,3422,Traveluro,3422,Hoteles.com,3385
Grupo Kings Suites -Monte Chimborazo 537,7.6,19.42501,-99.22494,Booking.com,1699,Agoda,1681,,NA
The Green Park Hotel,8.4,19.41523,-99.18488,Hoteles.com,2033,Expedia,2033,Booking.com,2033
Hotel St Isidro Corporate Housing,8.7,19.43377,-99.21262,Hoteles.com,1313,Booking.com,1379,Expedia,1313
Courtyard Mexico City Toreo,8.4,19.4592,-99.22158,Courtyard,854,Booking.com,863,Expedia,854
Fiesta Americana Mexico Toreo,9.5,19.45438,-99.21895,Expedia,1589,travelclick,1550,Booking.com,1606
Hotel Las Alcobas,9.4,19.43161,-99.19788,Trip.com,6781,Luxury Collection,10827,Expedia,6277
Alteza Polanco,8,19.43832,-99.21173,Booking.com,1566,Expedia,1410,Hoteles.com,1410
Hotel Arboleda 215,8.9,19.43056,-99.20886,Booking.com,1368,Expedia,1368,Hoteles.com,1368
Las Suites,8.6,19.43041,-99.20544,Hoteles.com,2010,travelclick,1758,Expedia,2010
Obelisk Suites,8,19.42833,-99.19756,Booking.com,2082,Expedia,1919,Trip.com,2165
Pugseal Polanco,9.2,19.43272,-99.20004,Trip.com,3327,Booking.com,3363,Expedia,3327
Suites Teca Once,7.3,19.42782,-99.2254,Destinia,1416,lol.travel,1168,Trip.com,1169
FlowSuites Polanco,8,19.42927,-99.19296,Booking.com,2108,travelclick,2001,Destinia,1778
The Wild Oscar,9.1,19.42994,-99.1897,Expedia,3098,Booking.com,3022,Traveluro,3091
Suites Rio Elba,8.1,19.42528,-99.17523,Booking.com,990,Expedia,991,Trip.com,1053
Marquis Reforma Hotel & Spa,8.8,19.4249,-99.17365,Expedia,2948,travelclick,2961,Trip.com,2257
"Hotel Sheraton Santa Fe, Mexico City",8.7,19.3684,-99.2613,Hoteles.com,1251,Sheraton,1251,Booking.com,1139
Hotel Del Prado,7.4,19.43661,-99.17139,Booking.com,1038,Hoteles.com,1020,Expedia,1022
City Express Suites Anzures,8.4,19.43266,-99.17744,Booking.com,1684,Hoteles.com,1616,Trip.com,1684
Kali Escandon Mexico City,8.7,19.40202,-99.17693,Booking.com,949,Hoteles.com,949,Expedia,949
Condesa Df,7.7,19.41619,-99.17203,Traveluro,5466,Trip.com,6047,Hotelwiz,5248
MX garibaldi,8.2,19.40545,-99.1506,Booking.com,675,Expedia,587,Hoteles.com,587
Gallery Condesa By Latour S And Resorts,8.4,19.41271,-99.18034,Hoteles.com,979,Expedia,979,Despegar,980
Suites Ganges,8.6,19.42934,-99.17278,Booking.com,945,Expedia,946,Hoteles.com,945
Mx Grand Suites,9.3,19.42634,-99.17354,Booking.com,1710,Expedia,1757,Hoteles.com,1755
JW Marriott  Mexico City Santa Fe,8.8,19.36719,-99.26041,Hoteles.com,1728,JW Marriott,1728,Expedia,1728
Hotel Suites del Ángel,7.9,19.42814,-99.16927,Booking.com,1170,Expedia,1171,Destinia,950
Mathias Boutique Apartments by Viadora,9.2,19.43365,-99.1694,Booking.com,3815,Expedia,3778,Hoteles.com,3774
Casa Anzures Suites,7.3,19.43219,-99.17796,Booking.com,1057,Agoda,1045,,NA
The Westin Santa Fe,8.9,19.36464,-99.25943,Westin,1728,Hoteles.com,1728,Booking.com,1747
Hotel Live Aqua Urban Resort Mexico,9.3,19.3864,-99.25295,Trip.com,3047,travelclick,4017,Traveluro,2891
Holiday Inn Express & Suites Mexico City At The WTC,8.1,19.39609,-99.17426,Booking.com,1134,Holiday Inn Express,1261,Expedia,1260
Hotel Villa Condesa,9.1,19.41687,-99.17281,Booking.com,2410,Expedia,2386,Hoteles.com,2384
Casa Decu,9,19.40874,-99.17127,Booking.com,1406,,NA,,NA
Casa Corp,8.4,19.40584,-99.17215,Booking.com,1386,,NA,,NA
Pug Seal Anatole France,8.8,19.43624,-99.19713,Booking.com,3012,,NA,,NA
Orchid House S,8.8,19.42999,-99.18599,Expedia,3027,,NA,,NA
Residence L' Heritage Tennyson by BlueBay,7.6,19.43052,-99.19516,Destinia,1345,,NA,,NA
Domingo Santo  Boutique,8.7,19.43694,-99.13422,Booking.com,1762,,NA,,NA
Hotel Segovia Regency,7.9,19.42299,-99.16443,Booking.com,692,Expedia,693,Hoteles.com,692
Ar218 Hotel,9.1,19.40754,-99.17375,Trip.com,3130,Expedia,3131,Booking.com,3165
Hotel & Villas Panamá,8.2,19.46217,-99.17754,Booking.com,586,Hoteles.com,586,Trip.com,586
Wyndham Garden Mexico City Reforma,8.3,19.4289,-99.1695,Booking.com,1287,Expedia,1287,Trip.com,1280
Parque Satelite,8.4,19.52044,-99.23019,Booking.com,583,Expedia,583,Hoteles.com,583
Rch Suite,7.8,19.45618,-99.17889,Booking.com,500,Despegar,500,Expedia,500
Don Jacinto Bed&breakfast,8.3,19.4192,-99.17657,Booking.com,1639,,NA,,NA
La Palomilla,8.2,19.41784,-99.17249,Booking.com,1807,,NA,,NA
Distrito Condesa - B&B,7.8,19.40851,-99.17461,Booking.com,1265,,NA,,NA
Condesa 185,6.5,19.4048,-99.17465,Booking.com,550,,NA,,NA
Ignacia Guest House,9.4,19.41317,-99.15985,Expedia,6960,,NA,,NA
Colibri B&b,8,19.38882,-99.1461,Expedia,416,,NA,,NA
Holiday Inn Ciudad De Mexico-Trade Center,8.4,19.38782,-99.1865,Holiday Inn,935,Booking.com,934,Hoteles.com,934
Park Villa,8.2,19.41469,-99.18471,Booking.com,806,Expedia,685,Hoteles.com,685
TRYP by Wyndham Mexico City World Trade Center Area,8.7,19.39914,-99.17123,Booking.com,826,Expedia,790,Destinia,856
Hotel Courtyard Mexico City Revolucion,8.4,19.3966,-99.1854,Booking.com,863,Hoteles.com,854,Expedia,854
Suites Contempo,8.3,19.42508,-99.17698,Booking.com,1575,Trip.com,1405,Despegar,1402
Armonik Suites,8.9,19.4302,-99.1713,Booking.com,959,Expedia,961,Destinia,912
Lombardo Suites,8.5,19.42697,-99.17792,Booking.com,1494,Expedia,1278,Hoteles.com,1277
Casa Malí by Dominion,9.4,19.41028,-99.17017,travelclick,2726,Booking.com,3108,Trip.com,2820
Park Nilo,7.9,19.42712,-99.17129,Booking.com,1666,Expedia,1502,Hoteles.com,1500
Exe Suites Reforma,8.1,19.43047,-99.16319,Booking.com,1058,Destinia,950,Expedia,1048
City Express Plus Satélite,8.2,19.51078,-99.2367,Booking.com,840,Expedia,840,Hoteles.com,840
Stayinn Barefoot Condesa,7.5,19.41673,-99.17849,Booking.com,1679,Agoda,1679,,NA
Maria Barbara,8.2,19.5226,-99.22863,Booking.com,920,Expedia,920,Hoteles.com,920
Hotel Sevilla,7.4,19.4331,-99.16081,Booking.com,459,Expedia,459,Hoteles.com,459
Suites Parioli,8,19.42981,-99.1683,Booking.com,900,Hoteles.com,788,Expedia,789
Casa Condesa Amatlan 84,8.8,19.41181,-99.17554,Booking.com,1159,Agoda,1159,,NA
Hotel Block Suites,8.2,19.42286,-99.16513,Booking.com,879,Expedia,942,Hoteles.com,941
Suites Lerma,7.8,19.42756,-99.171,Expedia,721,Booking.com,720,Destinia,724
& Suites Ferri,7.9,19.46826,-99.11679,Expedia,560,Hoteles.com,560,Agoda,449
Hotel Panorama,8,19.45757,-99.12717,Booking.com,485,Expedia,486,Hoteles.com,485
City Express Plus Mundo E,8.3,19.47051,-99.15638,Booking.com,866,Expedia,867,Hoteles.com,866
El Patio,8.1,19.46278,-99.14486,Booking.com,167,Despegar,293,Expedia,293
Hotel Brasilia,8.5,19.47562,-99.13876,Booking.com,791,Expedia,792,Hoteles.com,791
Hotel Aquario Cdmx - Central Del Norte,6.2,19.47691,-99.14083,Booking.com,452,Expedia,452,Hoteles.com,452
Canada,7.1,19.43428,-99.13596,Booking.com,795,Expedia,796,Hoteles.com,795
Torremoli0s,7.3,19.47382,-99.15884,Booking.com,505,Expedia,503,Despegar,503
Principal,7.6,19.43287,-99.13853,Booking.com,510,Expedia,510,Hoteles.com,510
Posada Alcazar,8.4,19.4365,-99.15236,Booking.com,400,Expedia,546,Destinia,593
City Express CDMX LA Villa,NA,19.46393,-99.12558,PriceTravel,765,,NA,,NA
Hotel Corinto,7,19.43438,-99.15565,Booking.com,538,Expedia,471,Hoteles.com,471
Mina,7.3,19.43975,-99.1493,Booking.com,421,Expedia,422,Agoda,421
Hotel Dos Naciones,7,19.43943,-99.14543,Booking.com,268,Expedia,268,Hoteles.com,268
Downtown Beds,8.3,19.43277,-99.13606,Booking.com,957,Despegar,246,Agoda,946
Collection O Santa Maria,7.4,19.45012,-99.15534,Booking.com,375,Expedia,371,Hoteles.com,371
Piet,NA,19.4601,-99.12701,Booking.com,233,Agoda,233,,NA
New York,7.6,19.4369,-99.1517,Booking.com,523,Expedia,461,Hoteles.com,461
La Rosa,7.9,19.45353,-99.1629,Booking.com,397,Expedia,435,Despegar,435
Gillow,8,19.43409,-99.13629,Booking.com,801,Agoda,801,,NA
Plaza Santo Domingo Loft By Latour S And Resorts,7.6,19.43981,-99.13406,Expedia,1228,Booking.com,1451,Hotelwiz,1469
Ancona,7.5,19.45308,-99.16091,Booking.com,310,Expedia,310,Hoteles.com,310
Astor,8.4,19.43476,-99.16015,Expedia,518,Hoteles.com,517,Destinia,480
El Salvador,7.9,19.43048,-99.14052,Booking.com,502,Expedia,503,Hoteles.com,502
Holiday Inn Express Mexico Basilica,9.2,19.45614,-99.12906,Holiday Inn Express,899,Hotelwiz,894,ZenHotels.com,949
Hotel Maxintimo,7.8,19.42007,-99.14239,Booking.com,507,Expedia,508,Hoteles.com,507
Mexico City Hostel,8.7,19.43564,-99.13392,Booking.com,378,Agoda,378,,NA
Azores,7.7,19.43656,-99.13365,Booking.com,470,Agoda,470,,NA
Hotel San Diego,7.9,19.42894,-99.14564,Booking.com,552,Expedia,553,Hoteles.com,552
Amigo,7.9,19.4307,-99.13665,Booking.com,579,lol.travel,200,Despegar,163
Hotel CostaAzul,8.4,19.42387,-99.1371,Expedia,447,Hoteles.com,446,Trip.com,470
Hotel Estoril,6.5,19.42903,-99.14592,Booking.com,1221,Destinia,743,Expedia,1008
Suites Capri Reforma Angel,7.7,19.43788,-99.146,Booking.com,1400,Expedia,1401,Hoteles.com,1400
Hotel Conde,7.5,19.43031,-99.14656,Booking.com,700,Expedia,700,Despegar,700
"Casa Donceles Apt. 1 Great for Family, Friends & Groups, la mejor ubicación en el centro de la ciudad.",8.9,19.43687,-99.13837,Expedia,1068,Hoteles.com,1066,,NA
Hotel Fleming,8,19.43086,-99.14655,Booking.com,552,Agoda,552,,NA
Hotel Embassy,7.2,19.423,-99.16006,Booking.com,519,Expedia,483,Hoteles.com,482
Niza,5.3,19.42855,-99.13642,Expedia,681,Hoteles.com,680,Hotelwiz,804
Posada Viena,7.9,19.42601,-99.15762,Booking.com,724,Expedia,580,Despegar,587
Hotel Benidorm,7.6,19.41405,-99.15493,Hoteles.com,895,Booking.com,895,Expedia,896
Hostal Virreyes,6.8,19.42685,-99.14117,Booking.com,578,Destinia,856,Agoda,518
Suites Mi Casa,8.1,19.43102,-99.15707,Booking.com,1082,Destinia,1251,Expedia,1348
Fiesta Inn Insurgentes Sur,8.7,19.3644,-99.18286,Hoteles.com,1196,travelclick,1165,Booking.com,1209
Hilton Garden Inn Mexico City Santa Fe,8.5,19.36516,-99.26215,Booking.com,851,Doubletree US,1224,Garden Inn,963
City Express Plus Insurgentes Sur,8.1,19.36459,-99.18221,Booking.com,1033,Expedia,1033,Hoteles.com,1033
AC Hotel Santa Fe,8.7,19.35879,-99.27757,AC Hotels,878,Booking.com,883,Expedia,874
NH Collection Mexico City Santa Fé,8.2,19.36101,-99.27866,NH Collection,922,Booking.com,1036,Hoteles.com,1025
Camino Real Pedregal México,7.9,19.31402,-99.22115,Hoteles.com,1268,Expedia,1268,Booking.com,1405
Royal Pedregal México,8.2,19.30331,-99.20023,Booking.com,1210,Hoteles.com,1210,Expedia,1210
Radisson Paraiso Perisur,8.2,19.30202,-99.18975,Hoteles.com,1317,Expedia,1317,Booking.com,1331
One Ciudad De Mexico Periferico Sur,8.4,19.30285,-99.16563,Booking.com,908,travelclick,871,Expedia,899
Hilton Mexico City Santa Fe,9.1,19.36776,-99.25915,Booking.com,1430,Hilton,1606,Expedia,1414
Fiesta Inn Insurgentes Viaducto,8.4,19.3638,-99.18304,Booking.com,1307,travelclick,1260,Hoteles.com,1293
Holiday Inn Mexico City-Plaza Universidad,8.9,19.36807,-99.16268,Booking.com,1260,Holiday Inn,1260,Expedia,1134
Hyatt House Mexico City/Santa Fe,9.1,19.35809,-99.28307,Booking.com,1144,Expedia,1132,Hoteles.com,1132
Hotel Camino Real Santa Fe,8.2,19.36759,-99.26109,Booking.com,1326,Expedia,1311,Hoteles.com,1311
HauSuites Santa Fe,7.9,19.36388,-99.24643,Booking.com,828,Expedia,828,Hoteles.com,828
NH Mexico City Valle Dorado,8.2,19.54754,-99.21043,NH Hotels,846,Booking.com,951,Expedia,941
InterContinental Presidente Santa Fe Mexico,9,19.35864,-99.27802,InterContinental,1975,Booking.com,1988,Expedia,1967
Hotel El Diplomático,7.3,19.38063,-99.17744,Booking.com,850,Expedia,851,Hoteles.com,851
City Express Gustavo Baz,8.9,19.51277,-99.21735,Booking.com,710,Expedia,710,Hoteles.com,710
Holiday Inn Express Mexico Santa Fe,8.2,19.36426,-99.26514,Booking.com,902,Holiday Inn Express,902,Destinia,855
City Express Tlalpan,8.8,19.36104,-99.14349,Booking.com,922,,NA,,NA
Hotel Manalba,8.2,19.43436,-99.15519,Booking.com,669,Expedia,669,Hoteles.com,668
María del Alma Guest House,9.2,19.35341,-99.16425,Booking.com,1443,Expedia,1589,Hoteles.com,1589
Finca Coyoacan,9.2,19.35398,-99.15826,Booking.com,953,Expedia,1192,Hoteles.com,1192
Casa Jacinta Guest House,9.3,19.35192,-99.16594,Booking.com,1438,Expedia,1917,Hoteles.com,1917
Casa Piedra,8.6,19.34732,-99.17582,PriceTravel,401,,NA,,NA
Pedregal Palace Ciudad de Mexico,7.4,19.3205,-99.22177,Booking.com,877,Hoteles.com,877,Expedia,877
City Express Plus Periferico Sur Tlalpan,8.8,19.28623,-99.14788,Booking.com,1123,Expedia,1123,Trip.com,1200
Casa Moctezuma,9,19.35092,-99.15951,Booking.com,1588,Expedia,1589,Hoteles.com,1589
Stadía Suites Santa Fe,8.8,19.35895,-99.27725,Booking.com,1235,travelclick,1220,Expedia,1235
Holiday Inn Hotel & Suites Mexico Medica Sur,8.5,19.29802,-99.16236,Booking.com,1472,Holiday Inn,1472,Expedia,1472
H21 Hospedaje Boutique,9.3,19.34861,-99.16119,Booking.com,2257,Expedia,2508,Hoteles.com,2508
Krystal Grand Suites,8.9,19.35096,-99.18659,Booking.com,1291,Expedia,1291,Hoteles.com,1291
City Express Patio Universidad,8.2,19.36529,-99.16471,Booking.com,1100,Hoteles.com,1100,Expedia,1100
Fiesta Inn Periférico Sur,8.3,19.30239,-99.16569,Booking.com,1028,travelclick,998,Hoteles.com,1028
Stara San Angel Inn,8.2,19.34699,-99.2045,Booking.com,2286,Traveluro,2144,MéxicoDestinos,2030
Suites Perisur Apartamentos Amueblados,9.3,19.30387,-99.18178,Booking.com,1401,travelclick,921,Expedia,1402
Pepper My Love,8.1,19.35082,-99.15929,Booking.com,530,Expedia,530,Hoteles.com,530
Capitals Luxury Apartments,8.6,19.30217,-99.16646,Booking.com,836,Hoteles.com,836,Expedia,836
Calle Berlin,7.7,19.35673,-99.15759,Booking.com,925,Expedia,349,Hoteles.com,349
Moritas,7.5,19.35841,-99.17777,Expedia,669,Hoteles.com,669,Despegar,669
Aztic,7.7,19.29912,-99.20969,Booking.com,468,Expedia,468,Hoteles.com,468
Comfort Inn Cd de México Santa Fe,7.5,19.37085,-99.26568,Booking.com,900,Comfort Inn Hotels,900,Expedia,765
La Casita de Coyoacán,9,19.35082,-99.15276,Booking.com,748,Expedia,858,Hoteles.com,858
Dakota Bed and Breakfast,8.2,19.38798,-99.17867,Booking.com,1460,Expedia,1948,Agoda,1460
Hostal Cuija Coyoacan,8.5,19.35531,-99.16476,Booking.com,750,Agoda,750,,NA
Anys Hostal,8.8,19.42146,-99.16818,Booking.com,695,Despegar,397,Agoda,694
Casa Comtesse,8.7,19.40455,-99.17377,Booking.com,1156,Expedia,1156,Hoteles.com,1156
Zocalo Rooms,6,19.43044,-99.13261,Booking.com,151,Expedia,232,Agoda,151
Casa Tistik,7.7,19.36141,-99.18829,Booking.com,888,Expedia,710,Hoteles.com,710
Centro Diana,5,19.34295,-99.18147,Booking.com,517,Expedia,600,Hoteles.com,600
Holiday Inn Express Mexico Aeropuerto,9.1,19.35837,-99.13108,Booking.com,1280,Expedia,1280,Hoteles.com,1280
Puertas Del Bosque,9.2,19.2962,-99.19015,Booking.com,1906,Expedia,1907,Hoteles.com,1907
Casa Tamayo,8.5,19.34835,-99.16737,Booking.com,1025,Expedia,1709,Agoda,1025
The Host Business Suites,7.9,19.39212,-99.17184,Booking.com,1104,Expedia,920,Hoteles.com,920
Hotel Novotel Mexico City Santa Fe,8,19.36702,-99.26006,Novotel,764,Booking.com,764,Hoteles.com,764
El Greco,7.7,19.38613,-99.17546,Booking.com,670,Agoda,670,,NA
Hotel Real del Sur,7,19.32062,-99.13839,Booking.com,869,Expedia,869,Hoteles.com,869
Quinta Tlalpan,7.9,19.29675,-99.15305,Booking.com,660,Expedia,628,Hoteles.com,628
La Encantada,7.9,19.35598,-99.16595,Despegar,450,Booking.com,450,Expedia,450
Crowne Plaza Hotel De Mexico,8.3,19.39614,-99.17408,Booking.com,1876,Crowne Plaza,1698,Hoteles.com,2086
Flowsuites WTC,7.9,19.39492,-99.17584,Booking.com,1390,travelclick,1287,Hoteles.com,1194
La Luna,8,19.29695,-99.15279,Booking.com,837,Expedia,837,Hoteles.com,837
Pennsylvania Suites,8.9,19.3904,-99.17876,Booking.com,1740,Trip.com,1392,Expedia,1740
Beverly,7.7,19.3867,-99.17542,Booking.com,711,Expedia,711,Hoteles.com,711
Continental Mexica0,7.1,19.30776,-99.23038,Booking.com,318,Agoda,318,,NA
J. Towers Suites,9.1,19.39296,-99.17662,Booking.com,1363,Hoteles.com,1363,Expedia,1363
Hotel Jard Inn,6.7,19.33513,-99.14152,Booking.com,709,Expedia,709,Trip.com,664
Lulu Coyoacán House.,8.1,19.35125,-99.1762,Expedia,1000,Hoteles.com,1000,,NA
Casa Hidalgo,8.4,19.3505,-99.15697,Vrbo,5463,,NA,,NA
Casa Culhuac,8.5,19.34702,-99.25428,Expedia,758,Hoteles.com,758,Despegar,758
Apartamento privado en la azotea! 2,NA,19.37197,-99.17336,Vrbo,1688,,NA,,NA
Department Republicas 74 Int 5,NA,19.36302,-99.14494,Vrbo,1013,,NA,,NA
Safari Retreat - Modern 2 Bedroom Ph With Amazing Views Of Mexico City,NA,19.38641,-99.17746,Despegar,1212,,NA,,NA
Chalet Del Carmen Coyoacán,8.3,19.35547,-99.16582,Booking.com,1050,Despegar,1292,Agoda,1050
Ambos Mundos,7.5,19.40289,-99.18484,Booking.com,750,Expedia,628,Trip.com,764
Bonn,8,19.40002,-99.1825,Booking.com,566,Expedia,529,Hoteles.com,529
Hotel Filadelfia Corporate Suites,8.5,19.39313,-99.17536,Booking.com,1283,Hoteles.com,1421,Expedia,1421
Real Azteca,7.4,19.30316,-99.14633,Booking.com,1180,Expedia,850,Hoteles.com,850
"Guadalupe Inn Cdmx, Nuevo Estrena",8.7,19.35494,-99.18518,Booking.com,1549,,NA,,NA
55 Fernandez Leal,8.1,19.34802,-99.15851,Booking.com,850,,NA,,NA
"Polanco New Apt, Great Location Business Or Fun!",8.6,19.43787,-99.19969,Booking.com,3216,,NA,,NA
Juub In The Heart Of New Polanco (r4),NA,19.44432,-99.20745,Booking.com,1271,,NA,,NA
Kron,7.7,19.2745,-99.1679,Booking.com,750,Expedia,850,Trip.com,850
Atenas Plaza,7.6,19.35562,-99.10146,Booking.com,680,Expedia,680,Trip.com,725
Inn Sur,7.9,19.28122,-99.17264,Expedia,588,Hoteles.com,588,,NA
City Express Central De Abastos,8,19.3685,-99.09943,Booking.com,823,Hoteles.com,823,Expedia,823
Hotel Montreal,8.3,19.34388,-99.14469,Expedia,494,Hoteles.com,494,Despegar,494
Amala,8.4,19.29106,-99.11027,Expedia,984,Hoteles.com,984,Trip.com,984
Hotel Cuore,NA,19.306,-99.14446,Booking.com,750,Agoda,750,,NA
La Huerta Hostel,7.8,19.29264,-99.17867,Booking.com,399,,NA,,NA
Abundantia,NA,19.28864,-99.16962,Despegar,838,,NA,,NA
Hotel Kron,NA,19.29241,-99.17693,Traveluro,1018,Hotelwiz,1005,Despegar,851
Hacienda Peña Pobre,NA,19.29652,-99.19094,travelclick,4794,,NA,,NA
Suites Los Camilos,NA,19.34583,-99.15872,Booking.com,2130,,NA,,NA
Unam Ciudad Universitaria Guesthouse,8.6,19.33139,-99.16532,Booking.com,360,,NA,,NA
Villa Alfonsina,NA,19.35468,-99.16255,Booking.com,1201,,NA,,NA
Estadio Azteca Y Hospitales: Deprtamento En Condominio,NA,19.30531,-99.14842,Vrbo,14980,,NA,,NA
Ciudad De Mexico Unam,NA,19.32637,-99.16737,Booking.com,339,Agoda,339,,NA
Hotel Novo Coapa,NA,19.30192,-99.11929,Booking.com,751,Agoda,751,,NA
Suite Privada,NA,19.29843,-99.22247,Booking.com,522,,NA,,NA
Organico Hotel Boutique,7.8,19.21892,-99.1936,Agoda,3504,,NA,,NA
Juub Coyoacan At Your Doorstep,NA,19.34777,-99.15856,Booking.com,864,,NA,,NA
Beutiful Mexican Loft.,NA,19.31296,-99.22845,Vrbo,999,,NA,,NA
Casa Ajusco,NA,19.22086,-99.2111,Booking.com,1990,,NA,,NA
Honey Loft,NA,19.34806,-99.16026,Despegar,1401,,NA,,NA
Habanero Loft-frida Kahlo’s Neighborhood-coyoacan,NA,19.35082,-99.1593,Despegar,1191,,NA,,NA
Chipotle Loft In The Historic Center Of Coyoacan,NA,19.35082,-99.1593,Despegar,1198,,NA,,NA
Jalapeño Loft In The Historic Center Of Coyoacán,NA,19.35082,-99.1593,Despegar,1199,,NA,,NA
Coyoacan Vip Lofts,8.3,19.35773,-99.16074,Booking.com,1004,,NA,,NA
Inmejorable En El Sur,NA,19.36577,-99.18098,Booking.com,897,,NA,,NA
Casa San Jacinto,NA,19.34395,-99.19231,Booking.com,1967,Agoda,1967,,NA
La Casa De Xochimilco,NA,19.2458,-99.09602,Despegar,1001,,NA,,NA
Casa Coyoacan,NA,19.35048,-99.15283,Booking.com,817,Vrbo,59922,,NA
Ramada Via Veneto Mexico City South,7,19.36116,-99.14346,Hotelwiz,1002,,NA,,NA
Stara Suites,NA,19.34692,-99.20461,Trip.com,2357,,NA,,NA
Suites Viveros,NA,19.35841,-99.17777,Booking.com,1100,,NA,,NA
City Towers Green,NA,19.36423,-99.16111,Booking.com,900,,NA,,NA
Habitacion En Casco De Hacienda Ciudad De Mexico,NA,19.31768,-99.08822,Booking.com,764,,NA,,NA
Torre Sagredo,NA,19.36131,-99.18848,Booking.com,2010,Hotelwiz,910,Agoda,1987
Hotel Maria Rico,NA,19.36685,-99.17102,Booking.com,631,Agoda,631,,NA
Del Angel,7,19.42846,-99.16884,Booking.com,868,Expedia,881,Trip.com,846
Basic Hotel,7.8,19.43515,-99.16638,Booking.com,720,Expedia,716,Hoteles.com,716
Suites Giorgio,7.9,19.42833,-99.16932,Booking.com,900,Expedia,900,Trip.com,708
Casa Emilia,8.9,19.43044,-99.17038,Booking.com,3410,Expedia,3200,Hoteles.com,3200
City Express Junior Cdmx Sullivan,8.8,19.43343,-99.16161,Booking.com,696,Expedia,696,Hoteles.com,696
Maria Cristina,7.3,19.43164,-99.16331,Booking.com,1048,Expedia,1035,Hoteles.com,1035
Mansion Havre,6.6,19.4267,-99.16107,Booking.com,774,Expedia,550,Hoteles.com,550
Flowsuites Condesa,8.4,19.41089,-99.17229,Booking.com,2682,Trip.com,2694,Expedia,2684
Antas,6.3,19.29999,-99.03815,Booking.com,455,Despegar,455,Expedia,455
Siesta Del Sur,7.1,19.3037,-99.05826,Booking.com,544,Expedia,546,Despegar,546
Providencia 848 Wtc,8.6,19.38853,-99.16933,Booking.com,1080,Expedia,1080,Hoteles.com,1080
Villas 7,7.2,19.40313,-99.05888,Booking.com,300,Expedia,400,Hoteles.com,400
Courtyard Mexico City Revolucion,7.3,19.25394,-99.06703,Courtyard,854,MéxicoDestinos,1042,,NA
Hotel Mexicali,7.5,19.40709,-99.13592,Booking.com,525,Despegar,484,Expedia,484
Departamento Amueblado,NA,19.40982,-99.16558,Booking.com,3931,,NA,,NA
Excelente Para Viaje De Negocios,NA,19.38655,-99.19371,Booking.com,697,,NA,,NA
Private Room Inside A Colonial Hacienda,NA,19.31792,-99.08832,Vrbo,993,,NA,,NA
Om 686 Urban Lofts,9.1,19.40233,-99.14671,Booking.com,1530,Expedia,1530,Hoteles.com,1530
Apartamento Cerca Del Foro Sol,NA,19.39784,-99.06446,Booking.com,995,,NA,,NA
Apartment For 4 People And Your Cute Dog,NA,19.39787,-99.06453,Vrbo,19865,,NA,,NA
Boutique Apartment Downtown 1417,8.6,19.4343,-99.14576,Booking.com,1624,Vrbo,1390,,NA
Oh Oriente  - Adults Only,7.7,19.39136,-99.03355,Expedia,427,Hoteles.com,427,Despegar,475
Ventura Hotel & Suites By Dominion,8.5,19.39999,-99.27888,Booking.com,1883,travelclick,1770,Hoteles.com,1851
City Express Plus Interlomas,8.2,19.39259,-99.28107,Booking.com,1818,Expedia,1818,Hoteles.com,1818
Holiday Inn Mexico Santa Fe,8.7,19.36419,-99.26528,Booking.com,900,Holiday Inn,900,Expedia,810
City Express Plus Santa Fe,7.9,19.35893,-99.27818,Booking.com,863,Expedia,863,Hoteles.com,863
City Express Suites Santa Fe,7.9,19.35913,-99.27819,Trip.com,1552,Traveluro,1118,lol.travel,1165
The Place Corporate Rentals,8.6,19.35268,-99.29501,Traveluro,3689,Trip.com,4466,ZenHotels.com,4006
"Spacious Apartment In Mexico City With Lift, Parking, Internet, Terrace",8.5,19.36251,-99.28485,Expedia,720,Hoteles.com,720,,NA
Grupo Kings Suites - Bosque de Duraznos 78,8.9,19.40406,-99.242,Expedia,1271,Despegar,1271,Hotelwiz,1505
Amazing And Spacious 3br 3ba Apt. In Polanco,NA,19.4299,-99.2036,Booking.com,3058,,NA,,NA
Large Department In Chapultepec,NA,19.41107,-99.18803,Vrbo,2582,,NA,,NA
Luxurious Apartment With Amenities Near Santa Fe,NA,19.37023,-99.26449,Booking.com,2630,Despegar,2801,Vrbo,2875
Doubletree by Hilton Mexico City Santa Fe,NA,19.36482,-99.26232,Trip.com,1212,Destinia,875,Despegar,1097
Casa Prim  Boutique,9,19.43055,-99.15535,Booking.com,1896,travelclick,1442,Trip.com,2038
Casa Pepe,8.7,19.43029,-99.13444,Booking.com,1345,Despegar,302,Agoda,2112
Napoles Condo Suite,6.8,19.39626,-99.17609,Booking.com,667,Expedia,650,Hoteles.com,650
Homesuites Condesa,8.7,19.41635,-99.17516,Booking.com,1375,Expedia,935,Hoteles.com,935
Hotel Vermont,8.4,19.39747,-99.17271,Hoteles.com,837,Expedia,837,Trip.com,892
Roosevelt,7.8,19.41574,-99.166,Booking.com,862,Despegar,733,Agoda,862
